
{
    "type": "FeatureCollection",
    "generator": "JOSM",
    "features": [
        {
            "type": "Feature",
            "properties": {
                "@id": "node/2326913909",
                "name": "Uvala Slatina",
                "natural": "bay"
            },
            "geometry": {
                "type": "Point",
                "coordinates": [
                    16.57897290000,
                    43.26495730000
                ]
            }
        },
        {
            "type": "Feature",
            "properties": {
                "@id": "node/5424040782",
                "name": "Uvala Zadražice",
                "natural": "bay"
            },
            "geometry": {
                "type": "Point",
                "coordinates": [
                    14.27013300000,
                    44.68451550000
                ]
            }
        },
        {
            "type": "Feature",
            "properties": {
                "@id": "node/2711662208",
                "name": "Uvala Duba",
                "natural": "bay",
                "place": "locality"
            },
            "geometry": {
                "type": "Point",
                "coordinates": [
                    17.48794740000,
                    42.97838140000
                ]
            }
        },
        {
            "type": "Feature",
            "properties": {
                "@id": "way/258614414",
                "name": "Uvala Zav",
                "natural": "bay"
            },
            "geometry": {
                "type": "Polygon",
                "coordinates": [
                    [
                        [
                            14.74470840000,
                            45.05253990000
                        ],
                        [
                            14.74469300000,
                            45.05198740000
                        ],
                        [
                            14.74369880000,
                            45.05124390000
                        ],
                        [
                            14.74343780000,
                            45.05127870000
                        ],
                        [
                            14.74310520000,
                            45.05165770000
                        ],
                        [
                            14.74221470000,
                            45.05202910000
                        ],
                        [
                            14.74201440000,
                            45.05192990000
                        ],
                        [
                            14.74223610000,
                            45.05149470000
                        ],
                        [
                            14.74208060000,
                            45.05111570000
                        ],
                        [
                            14.74273500000,
                            45.05078600000
                        ],
                        [
                            14.74291740000,
                            45.05045250000
                        ],
                        [
                            14.74284770000,
                            45.05027060000
                        ],
                        [
                            14.74239710000,
                            45.05013040000
                        ],
                        [
                            14.74246680000,
                            45.04994090000
                        ],
                        [
                            14.74275810000,
                            45.04978810000
                        ],
                        [
                            14.74323930000,
                            45.04991430000
                        ],
                        [
                            14.74370970000,
                            45.04988530000
                        ],
                        [
                            14.74390600000,
                            45.05030370000
                        ],
                        [
                            14.74445160000,
                            45.05047900000
                        ],
                        [
                            14.74499880000,
                            45.05061930000
                        ],
                        [
                            14.74539020000,
                            45.05043850000
                        ],
                        [
                            14.74470840000,
                            45.05253990000
                        ]
                    ]
                ]
            }
        },
        {
            "type": "Feature",
            "properties": {
                "@id": "node/1549105553",
                "name": "Uvala Blaz",
                "natural": "bay"
            },
            "geometry": {
                "type": "Point",
                "coordinates": [
                    14.03816190000,
                    45.00077000000
                ]
            }
        },
        {
            "type": "Feature",
            "properties": {
                "@id": "node/1388181381",
                "name": "Uvala Strunac",
                "natural": "bay"
            },
            "geometry": {
                "type": "Point",
                "coordinates": [
                    15.31108890000,
                    43.87788520000
                ]
            }
        },
        {
            "type": "Feature",
            "properties": {
                "@id": "node/2326878172",
                "name": "Luka",
                "natural": "bay"
            },
            "geometry": {
                "type": "Point",
                "coordinates": [
                    16.80101220000,
                    43.34130210000
                ]
            }
        },
        {
            "type": "Feature",
            "properties": {
                "@id": "node/2326913904",
                "name": "Smrčeva l.",
                "natural": "bay"
            },
            "geometry": {
                "type": "Point",
                "coordinates": [
                    16.54936130000,
                    43.26730260000
                ]
            }
        },
        {
            "type": "Feature",
            "properties": {
                "@id": "node/5422696146",
                "name": "Uvala Kovčanja",
                "natural": "bay",
                "old_name": "Valle Artatore"
            },
            "geometry": {
                "type": "Point",
                "coordinates": [
                    14.42646500000,
                    44.56720500000
                ]
            }
        },
        {
            "type": "Feature",
            "properties": {
                "@id": "node/1430279083",
                "name": "Uvala Barnestrovica",
                "natural": "bay"
            },
            "geometry": {
                "type": "Point",
                "coordinates": [
                    14.49187540000,
                    44.68330010000
                ]
            }
        },
        {
            "type": "Feature",
            "properties": {
                "@id": "node/2107127499",
                "name": "Luka Budava",
                "natural": "bay"
            },
            "geometry": {
                "type": "Point",
                "coordinates": [
                    13.99306240000,
                    44.89152630000
                ]
            }
        },
        {
            "type": "Feature",
            "properties": {
                "@id": "node/3203545469",
                "name": "Uvala Pancic",
                "natural": "bay"
            },
            "geometry": {
                "type": "Point",
                "coordinates": [
                    14.34975500000,
                    44.65624830000
                ]
            }
        },
        {
            "type": "Feature",
            "properties": {
                "@id": "node/760310035",
                "name": "Uvala Slanica",
                "natural": "bay"
            },
            "geometry": {
                "type": "Point",
                "coordinates": [
                    15.57824040000,
                    43.81603950000
                ]
            }
        },
        {
            "type": "Feature",
            "properties": {
                "@id": "node/5466465783",
                "name": "Uvala Vranač",
                "natural": "bay",
                "source": "geoportal.dgu.hr: TK25 (Topografska karta 1:25000)"
            },
            "geometry": {
                "type": "Point",
                "coordinates": [
                    14.80699780000,
                    44.26264910000
                ]
            }
        },
        {
            "type": "Feature",
            "properties": {
                "@id": "node/3206838512",
                "name": "Uvala Mali Galbočica",
                "natural": "bay"
            },
            "geometry": {
                "type": "Point",
                "coordinates": [
                    14.47864450000,
                    44.61127850000
                ]
            }
        },
        {
            "type": "Feature",
            "properties": {
                "@id": "way/289183224",
                "name": "Soca",
                "natural": "bay"
            },
            "geometry": {
                "type": "Polygon",
                "coordinates": [
                    [
                        [
                            16.94120530000,
                            43.11235620000
                        ],
                        [
                            16.94490640000,
                            43.11278950000
                        ],
                        [
                            16.94447090000,
                            43.11287870000
                        ],
                        [
                            16.94391630000,
                            43.11302080000
                        ],
                        [
                            16.94323700000,
                            43.11332950000
                        ],
                        [
                            16.94259650000,
                            43.11370240000
                        ],
                        [
                            16.94237120000,
                            43.11370330000
                        ],
                        [
                            16.94178780000,
                            43.11283570000
                        ],
                        [
                            16.94147700000,
                            43.11242210000
                        ],
                        [
                            16.94120530000,
                            43.11235620000
                        ]
                    ]
                ]
            }
        },
        {
            "type": "Feature",
            "properties": {
                "@id": "node/5422575410",
                "name": "Uvala Krojeva",
                "natural": "bay"
            },
            "geometry": {
                "type": "Point",
                "coordinates": [
                    14.53495500000,
                    44.44744560000
                ]
            }
        },
        {
            "type": "Feature",
            "properties": {
                "@id": "node/5095255196",
                "name": "Bočac",
                "natural": "bay"
            },
            "geometry": {
                "type": "Point",
                "coordinates": [
                    16.29216800000,
                    43.40400220000
                ]
            }
        },
        {
            "type": "Feature",
            "properties": {
                "@id": "node/1102766266",
                "name": "Rasovatica",
                "natural": "bay"
            },
            "geometry": {
                "type": "Point",
                "coordinates": [
                    17.14139450000,
                    43.11639970000
                ]
            }
        },
        {
            "type": "Feature",
            "properties": {
                "@id": "node/726748745",
                "name": "Uvala Dražica",
                "natural": "bay",
                "old_name:it": "Valle Canaluzi"
            },
            "geometry": {
                "type": "Point",
                "coordinates": [
                    13.74802310000,
                    44.90106800000
                ]
            }
        },
        {
            "type": "Feature",
            "properties": {
                "@id": "node/5448521710",
                "name": "Uvala Grabrovica",
                "natural": "bay"
            },
            "geometry": {
                "type": "Point",
                "coordinates": [
                    14.30080890000,
                    44.51837300000
                ]
            }
        },
        {
            "type": "Feature",
            "properties": {
                "@id": "node/3741375184",
                "name": "Uvala Portorusa",
                "natural": "bay"
            },
            "geometry": {
                "type": "Point",
                "coordinates": [
                    16.71891920000,
                    43.08181170000
                ]
            }
        },
        {
            "type": "Feature",
            "properties": {
                "@id": "node/2992010445",
                "name": "Mala draga",
                "name:it": "Valle Piccola",
                "natural": "bay"
            },
            "geometry": {
                "type": "Point",
                "coordinates": [
                    14.81761670000,
                    44.83366670000
                ]
            }
        },
        {
            "type": "Feature",
            "properties": {
                "@id": "node/1614139424",
                "name": "Uvala Runci",
                "name:it": "Valle Ronzi",
                "natural": "bay"
            },
            "geometry": {
                "type": "Point",
                "coordinates": [
                    13.81126110000,
                    44.90753950000
                ]
            }
        },
        {
            "type": "Feature",
            "properties": {
                "@id": "node/5458500610",
                "name": "Uvala Smokvica",
                "natural": "bay"
            },
            "geometry": {
                "type": "Point",
                "coordinates": [
                    14.63881440000,
                    44.31225970000
                ]
            }
        },
        {
            "type": "Feature",
            "properties": {
                "@id": "node/927085507",
                "name": "Uvala M. Zanavlje",
                "natural": "bay"
            },
            "geometry": {
                "type": "Point",
                "coordinates": [
                    16.69509970000,
                    42.99303580000
                ]
            }
        },
        {
            "type": "Feature",
            "properties": {
                "@id": "node/726748710",
                "name": "Uvala Dobrika",
                "natural": "bay"
            },
            "geometry": {
                "type": "Point",
                "coordinates": [
                    13.75172310000,
                    44.90877240000
                ]
            }
        },
        {
            "type": "Feature",
            "properties": {
                "@id": "node/2711714399",
                "name": "Uvala Sutvid",
                "natural": "bay",
                "place": "locality"
            },
            "geometry": {
                "type": "Point",
                "coordinates": [
                    17.47324860000,
                    42.91601370000
                ]
            }
        },
        {
            "type": "Feature",
            "properties": {
                "@id": "node/1102840639",
                "name": "Uvala Duga",
                "natural": "bay"
            },
            "geometry": {
                "type": "Point",
                "coordinates": [
                    16.02264920000,
                    42.96723840000
                ]
            }
        },
        {
            "type": "Feature",
            "properties": {
                "@id": "node/3945395707",
                "name": "Tala",
                "natural": "bay"
            },
            "geometry": {
                "type": "Point",
                "coordinates": [
                    15.16653900000,
                    44.09674050000
                ]
            }
        },
        {
            "type": "Feature",
            "properties": {
                "@id": "node/2326878169",
                "name": "Uvala Jezero",
                "natural": "bay"
            },
            "geometry": {
                "type": "Point",
                "coordinates": [
                    16.87984980000,
                    43.28901380000
                ]
            }
        },
        {
            "type": "Feature",
            "properties": {
                "@id": "node/5900022654",
                "name": "Uvala Matejuška",
                "natural": "bay"
            },
            "geometry": {
                "type": "Point",
                "coordinates": [
                    16.43532690000,
                    43.50762770000
                ]
            }
        },
        {
            "type": "Feature",
            "properties": {
                "@id": "node/928137231",
                "name": "Uvala Polkucina",
                "natural": "bay"
            },
            "geometry": {
                "type": "Point",
                "coordinates": [
                    15.66846400000,
                    43.69334660000
                ]
            }
        },
        {
            "type": "Feature",
            "properties": {
                "@id": "node/5466465764",
                "name": "Uvala Jezerina",
                "natural": "bay",
                "source": "geoportal.dgu.hr: TK25 (Topografska karta 1:25000)"
            },
            "geometry": {
                "type": "Point",
                "coordinates": [
                    14.89903930000,
                    44.20418900000
                ]
            }
        },
        {
            "type": "Feature",
            "properties": {
                "@id": "node/2897985396",
                "name": "Uvala Vlaka",
                "natural": "bay"
            },
            "geometry": {
                "type": "Point",
                "coordinates": [
                    16.36520800000,
                    43.16759300000
                ]
            }
        },
        {
            "type": "Feature",
            "properties": {
                "@id": "node/5424058306",
                "name": "Skrača od Arbita",
                "natural": "bay"
            },
            "geometry": {
                "type": "Point",
                "coordinates": [
                    14.26808770000,
                    44.61096590000
                ]
            }
        },
        {
            "type": "Feature",
            "properties": {
                "@id": "node/927085504",
                "name": "Uvala Rasoha",
                "natural": "bay"
            },
            "geometry": {
                "type": "Point",
                "coordinates": [
                    16.91020400000,
                    42.96925910000
                ]
            }
        },
        {
            "type": "Feature",
            "properties": {
                "@id": "node/5467321643",
                "name": "Uvala Stolac",
                "natural": "bay",
                "source": "geoportal.dgu.hr: TK25 (Topografska karta 1:25000)"
            },
            "geometry": {
                "type": "Point",
                "coordinates": [
                    14.75571150000,
                    44.83125220000
                ]
            }
        },
        {
            "type": "Feature",
            "properties": {
                "@id": "node/3587351448",
                "name": "Uvala Majiška",
                "natural": "bay",
                "seamark:mooring:category": "buoy",
                "seamark:type": "mooring"
            },
            "geometry": {
                "type": "Point",
                "coordinates": [
                    14.52108090000,
                    44.63371560000
                ]
            }
        },
        {
            "type": "Feature",
            "properties": {
                "@id": "node/2375424672",
                "name": "Uvala Strijan bok",
                "natural": "bay"
            },
            "geometry": {
                "type": "Point",
                "coordinates": [
                    14.90916640000,
                    44.14381770000
                ]
            }
        },
        {
            "type": "Feature",
            "properties": {
                "@id": "node/3006719195",
                "name": "Fuža",
                "natural": "bay"
            },
            "geometry": {
                "type": "Point",
                "coordinates": [
                    16.67634790000,
                    42.96910280000
                ]
            }
        },
        {
            "type": "Feature",
            "properties": {
                "@id": "node/928498981",
                "name": "Uvala Banja",
                "natural": "bay"
            },
            "geometry": {
                "type": "Point",
                "coordinates": [
                    14.46366690000,
                    44.93792790000
                ]
            }
        },
        {
            "type": "Feature",
            "properties": {
                "@id": "node/2239972817",
                "name": "Uvala Stivančica",
                "natural": "bay"
            },
            "geometry": {
                "type": "Point",
                "coordinates": [
                    15.96947250000,
                    43.50034500000
                ]
            }
        },
        {
            "type": "Feature",
            "properties": {
                "@id": "node/2326904644",
                "name": "Tužna l.",
                "natural": "bay"
            },
            "geometry": {
                "type": "Point",
                "coordinates": [
                    16.73080740000,
                    43.26258370000
                ]
            }
        },
        {
            "type": "Feature",
            "properties": {
                "@id": "node/2274495835",
                "name": "Uvala Baldarka",
                "natural": "bay"
            },
            "geometry": {
                "type": "Point",
                "coordinates": [
                    14.48343200000,
                    44.52852530000
                ]
            }
        },
        {
            "type": "Feature",
            "properties": {
                "@id": "node/1947956628",
                "name": "Uvala Zavraće",
                "natural": "bay"
            },
            "geometry": {
                "type": "Point",
                "coordinates": [
                    16.42561160000,
                    43.32353890000
                ]
            }
        },
        {
            "type": "Feature",
            "properties": {
                "@id": "node/5464799128",
                "name": "Široka uvala",
                "natural": "bay",
                "source": "geoportal.dgu.hr: TK25 (Topografska karta 1:25000)"
            },
            "geometry": {
                "type": "Point",
                "coordinates": [
                    14.76558200000,
                    44.26984960000
                ]
            }
        },
        {
            "type": "Feature",
            "properties": {
                "@id": "node/928498861",
                "name": "Uvala Jaz",
                "natural": "bay"
            },
            "geometry": {
                "type": "Point",
                "coordinates": [
                    14.41870260000,
                    44.67003850000
                ]
            }
        },
        {
            "type": "Feature",
            "properties": {
                "@id": "node/1102170212",
                "name": "Golubinka",
                "natural": "bay"
            },
            "geometry": {
                "type": "Point",
                "coordinates": [
                    16.87170180000,
                    43.11690470000
                ]
            }
        },
        {
            "type": "Feature",
            "properties": {
                "@id": "node/579805341",
                "name": "Saldun",
                "natural": "bay"
            },
            "geometry": {
                "type": "Point",
                "coordinates": [
                    16.24931530000,
                    43.50553830000
                ]
            }
        },
        {
            "type": "Feature",
            "properties": {
                "@id": "node/3741375183",
                "name": "Uvala Sotovi bol",
                "natural": "bay"
            },
            "geometry": {
                "type": "Point",
                "coordinates": [
                    16.68307580000,
                    43.09738980000
                ]
            }
        },
        {
            "type": "Feature",
            "properties": {
                "@id": "node/984749843",
                "name": "Uvala Podmrčare",
                "natural": "bay"
            },
            "geometry": {
                "type": "Point",
                "coordinates": [
                    16.78422830000,
                    42.77092860000
                ]
            }
        },
        {
            "type": "Feature",
            "properties": {
                "@id": "node/3945402940",
                "name": "Batalaža",
                "natural": "bay"
            },
            "geometry": {
                "type": "Point",
                "coordinates": [
                    15.21072090000,
                    44.06227210000
                ]
            }
        },
        {
            "type": "Feature",
            "properties": {
                "@id": "node/5467316215",
                "name": "Uvala Rasatovica",
                "natural": "bay",
                "source": "geoportal.dgu.hr: TK25 (Topografska karta 1:25000)"
            },
            "geometry": {
                "type": "Point",
                "coordinates": [
                    14.65915200000,
                    44.78638880000
                ]
            }
        },
        {
            "type": "Feature",
            "properties": {
                "@id": "node/2375915548",
                "name": "Uvala Kobiljak",
                "natural": "bay"
            },
            "geometry": {
                "type": "Point",
                "coordinates": [
                    15.19785850000,
                    43.86966160000
                ]
            }
        },
        {
            "type": "Feature",
            "properties": {
                "@id": "node/3730797362",
                "name": "Uvala Klještine",
                "natural": "bay"
            },
            "geometry": {
                "type": "Point",
                "coordinates": [
                    17.55441980000,
                    42.94209360000
                ]
            }
        },
        {
            "type": "Feature",
            "properties": {
                "@id": "node/5466465750",
                "name": "Luka Zapuntel",
                "natural": "bay",
                "source": "geoportal.dgu.hr: TK25 (Topografska karta 1:25000)"
            },
            "geometry": {
                "type": "Point",
                "coordinates": [
                    14.79721860000,
                    44.26230420000
                ]
            }
        },
        {
            "type": "Feature",
            "properties": {
                "@id": "node/5480596589",
                "name": "Zaniska uvala",
                "natural": "bay",
                "source": "geoportal.dgu.hr: TK25 (Topografska karta 1:25000)"
            },
            "geometry": {
                "type": "Point",
                "coordinates": [
                    14.70236780000,
                    44.37823400000
                ]
            }
        },
        {
            "type": "Feature",
            "properties": {
                "@id": "node/3080911133",
                "name": "Lovišća",
                "natural": "bay"
            },
            "geometry": {
                "type": "Point",
                "coordinates": [
                    15.62877140000,
                    43.79618410000
                ]
            }
        },
        {
            "type": "Feature",
            "properties": {
                "@id": "node/3506913878",
                "name": "Uvala Škaraba",
                "name:it": "Baia Grande Scaraba",
                "natural": "bay"
            },
            "geometry": {
                "type": "Point",
                "coordinates": [
                    13.63883020000,
                    45.06440000000
                ]
            }
        },
        {
            "type": "Feature",
            "properties": {
                "@id": "node/5595088147",
                "name": "Tatinja",
                "natural": "bay"
            },
            "geometry": {
                "type": "Point",
                "coordinates": [
                    16.63834330000,
                    43.21337880000
                ]
            }
        },
        {
            "type": "Feature",
            "properties": {
                "@id": "node/5009353212",
                "name": "Uvala Mala Čavojnica",
                "natural": "bay"
            },
            "geometry": {
                "type": "Point",
                "coordinates": [
                    16.24155800000,
                    43.07024620000
                ]
            }
        },
        {
            "type": "Feature",
            "properties": {
                "@id": "node/984749827",
                "name": "Uvala u Mrčaru",
                "natural": "bay"
            },
            "geometry": {
                "type": "Point",
                "coordinates": [
                    16.79181170000,
                    42.76112400000
                ]
            }
        },
        {
            "type": "Feature",
            "properties": {
                "@id": "node/5513828108",
                "name": "Uvala Zela",
                "natural": "bay",
                "source": "geoportal.dgu.hr: TK25 (Topografska karta 1:25000)"
            },
            "geometry": {
                "type": "Point",
                "coordinates": [
                    14.44884140000,
                    44.78632320000
                ]
            }
        },
        {
            "type": "Feature",
            "properties": {
                "@id": "node/1546224715",
                "name": "Uvala Sičenica",
                "natural": "bay"
            },
            "geometry": {
                "type": "Point",
                "coordinates": [
                    16.01325730000,
                    43.49278590000
                ]
            }
        },
        {
            "type": "Feature",
            "properties": {
                "@id": "node/3989571953",
                "name": "Jaz",
                "natural": "bay"
            },
            "geometry": {
                "type": "Point",
                "coordinates": [
                    15.28256080000,
                    44.06871730000
                ]
            }
        },
        {
            "type": "Feature",
            "properties": {
                "@id": "node/6760598930",
                "name": "Uvala Veli Dragodid",
                "natural": "bay"
            },
            "geometry": {
                "type": "Point",
                "coordinates": [
                    16.06738120000,
                    43.06260310000
                ]
            }
        },
        {
            "type": "Feature",
            "properties": {
                "@id": "node/5101199222",
                "name": "Uvala Stolac",
                "natural": "bay"
            },
            "geometry": {
                "type": "Point",
                "coordinates": [
                    14.75590190000,
                    44.83306230000
                ]
            }
        },
        {
            "type": "Feature",
            "properties": {
                "@id": "node/5464258924",
                "name": "Uvala Zadbadnja",
                "natural": "bay",
                "source": "geoportal.dgu.hr: TK25 (Topografska karta 1:25000)"
            },
            "geometry": {
                "type": "Point",
                "coordinates": [
                    14.77798460000,
                    44.86511640000
                ]
            }
        },
        {
            "type": "Feature",
            "properties": {
                "@id": "node/5467321637",
                "name": "Uvala Crkvena dražica",
                "natural": "bay",
                "source": "geoportal.dgu.hr: TK25 (Topografska karta 1:25000)"
            },
            "geometry": {
                "type": "Point",
                "coordinates": [
                    14.72144360000,
                    44.84220770000
                ]
            }
        },
        {
            "type": "Feature",
            "properties": {
                "@id": "node/5422558044",
                "name": "Uvala Podgroblje",
                "natural": "bay"
            },
            "geometry": {
                "type": "Point",
                "coordinates": [
                    14.54403160000,
                    44.46793810000
                ]
            }
        },
        {
            "type": "Feature",
            "properties": {
                "@id": "node/2378263680",
                "name": "Uvala Kablin",
                "natural": "bay"
            },
            "geometry": {
                "type": "Point",
                "coordinates": [
                    14.86020490000,
                    44.16633980000
                ]
            }
        },
        {
            "type": "Feature",
            "properties": {
                "@id": "node/4387180530",
                "name": "Uvala Rokovača",
                "natural": "bay"
            },
            "geometry": {
                "type": "Point",
                "coordinates": [
                    15.92175070000,
                    43.81657780000
                ]
            }
        },
        {
            "type": "Feature",
            "properties": {
                "@id": "node/928624565",
                "name": "Uvala Stivanjska",
                "natural": "bay"
            },
            "geometry": {
                "type": "Point",
                "coordinates": [
                    14.35775180000,
                    45.11682130000
                ]
            }
        },
        {
            "type": "Feature",
            "properties": {
                "@id": "node/3668730220",
                "name": "Uvala Zala",
                "natural": "bay"
            },
            "geometry": {
                "type": "Point",
                "coordinates": [
                    14.69927420000,
                    44.94851470000
                ]
            }
        },
        {
            "type": "Feature",
            "properties": {
                "@id": "node/2630192745",
                "name": "Uvala Tunjarica",
                "natural": "bay"
            },
            "geometry": {
                "type": "Point",
                "coordinates": [
                    13.73096520000,
                    44.93337080000
                ]
            }
        },
        {
            "type": "Feature",
            "properties": {
                "@id": "node/5462698908",
                "name": "Bok",
                "natural": "bay"
            },
            "geometry": {
                "type": "Point",
                "coordinates": [
                    14.85548480000,
                    44.37666800000
                ]
            }
        },
        {
            "type": "Feature",
            "properties": {
                "@id": "node/1947996793",
                "name": "Lučica",
                "natural": "bay"
            },
            "geometry": {
                "type": "Point",
                "coordinates": [
                    16.44623670000,
                    43.31001580000
                ]
            }
        },
        {
            "type": "Feature",
            "properties": {
                "@id": "node/928137207",
                "name": "Uvala Strižnja",
                "natural": "bay"
            },
            "geometry": {
                "type": "Point",
                "coordinates": [
                    15.28444820000,
                    43.81924010000
                ]
            }
        },
        {
            "type": "Feature",
            "properties": {
                "@id": "node/1947959743",
                "name": "Uvala Makarac",
                "natural": "bay"
            },
            "geometry": {
                "type": "Point",
                "coordinates": [
                    16.43071860000,
                    43.32424140000
                ]
            }
        },
        {
            "type": "Feature",
            "properties": {
                "@id": "node/497549329",
                "name": "Uvala Polje",
                "natural": "bay",
                "old_name": "Porto S. Martino",
                "source": "U.S. Defense Mapping Agency"
            },
            "geometry": {
                "type": "Point",
                "coordinates": [
                    13.90397480000,
                    44.78535730000
                ]
            }
        },
        {
            "type": "Feature",
            "properties": {
                "@id": "node/2684272762",
                "name": "Pavja luka",
                "natural": "bay"
            },
            "geometry": {
                "type": "Point",
                "coordinates": [
                    17.10536120000,
                    42.90953270000
                ]
            }
        },
        {
            "type": "Feature",
            "properties": {
                "@id": "node/928624675",
                "name": "Uvala Tiha",
                "natural": "bay"
            },
            "geometry": {
                "type": "Point",
                "coordinates": [
                    14.33880470000,
                    44.81722870000
                ]
            }
        },
        {
            "type": "Feature",
            "properties": {
                "@id": "node/984749849",
                "name": "Uvala Leprnovac",
                "natural": "bay"
            },
            "geometry": {
                "type": "Point",
                "coordinates": [
                    16.82383100000,
                    42.73414340000
                ]
            }
        },
        {
            "type": "Feature",
            "properties": {
                "@id": "node/2951437155",
                "name": "Uvala Mali Mel",
                "natural": "bay",
                "source": "geoportal.dgu.hr: TK25 (Topografska karta 1:25000)"
            },
            "geometry": {
                "type": "Point",
                "coordinates": [
                    14.69869170000,
                    44.80184520000
                ]
            }
        },
        {
            "type": "Feature",
            "properties": {
                "@id": "node/3973320582",
                "name": "Ljubačka vala",
                "natural": "bay"
            },
            "geometry": {
                "type": "Point",
                "coordinates": [
                    15.28094800000,
                    44.25989800000
                ]
            }
        },
        {
            "type": "Feature",
            "properties": {
                "@id": "node/2105516017",
                "name": "Uvala Sveti Benedikt",
                "natural": "bay"
            },
            "geometry": {
                "type": "Point",
                "coordinates": [
                    13.73576850000,
                    44.99147210000
                ]
            }
        },
        {
            "type": "Feature",
            "properties": {
                "@id": "node/928624617",
                "name": "Uvala Gavza",
                "natural": "bay"
            },
            "geometry": {
                "type": "Point",
                "coordinates": [
                    14.38813590000,
                    44.97175970000
                ]
            }
        },
        {
            "type": "Feature",
            "properties": {
                "@id": "node/457847119",
                "name": "Uvala Stara Novalja",
                "natural": "bay"
            },
            "geometry": {
                "type": "Point",
                "coordinates": [
                    14.87241120000,
                    44.58941050000
                ]
            }
        },
        {
            "type": "Feature",
            "properties": {
                "@id": "node/496153180",
                "description": "Uvala Soline, schöne flache Ankerbucht gegenüber camp Valalta",
                "ft_link": "www.freietonne.de?edit=11647",
                "name": "Uvala Soline",
                "name:it": "Val Saline",
                "natural": "bay",
                "waterway:sign": "anchor"
            },
            "geometry": {
                "type": "Point",
                "coordinates": [
                    13.62165810000,
                    45.12026410000
                ]
            }
        },
        {
            "type": "Feature",
            "properties": {
                "@id": "node/1448819589",
                "name": "Borova",
                "natural": "bay"
            },
            "geometry": {
                "type": "Point",
                "coordinates": [
                    16.63113780000,
                    43.21237210000
                ]
            }
        },
        {
            "type": "Feature",
            "properties": {
                "@id": "node/984749918",
                "name": "Uvala Zakraje",
                "natural": "bay"
            },
            "geometry": {
                "type": "Point",
                "coordinates": [
                    16.91610580000,
                    42.73281230000
                ]
            }
        },
        {
            "type": "Feature",
            "properties": {
                "@id": "node/1423828336",
                "name": "Uvala Pokonji dol",
                "natural": "bay"
            },
            "geometry": {
                "type": "Point",
                "coordinates": [
                    16.45503890000,
                    43.16288560000
                ]
            }
        },
        {
            "type": "Feature",
            "properties": {
                "@id": "node/2377449564",
                "name": "Uvala Brig",
                "natural": "bay"
            },
            "geometry": {
                "type": "Point",
                "coordinates": [
                    14.81892950000,
                    44.15630030000
                ]
            }
        },
        {
            "type": "Feature",
            "properties": {
                "@id": "node/1293153841",
                "name": "Uvala Zagračina",
                "natural": "bay"
            },
            "geometry": {
                "type": "Point",
                "coordinates": [
                    14.89135800000,
                    44.15201890000
                ]
            }
        },
        {
            "type": "Feature",
            "properties": {
                "@id": "node/5009449119",
                "name": "Oprna bay",
                "natural": "bay"
            },
            "geometry": {
                "type": "Point",
                "coordinates": [
                    14.66271650000,
                    44.96669470000
                ]
            }
        },
        {
            "type": "Feature",
            "properties": {
                "@id": "node/3647757110",
                "name": "Tri žala",
                "natural": "bay"
            },
            "geometry": {
                "type": "Point",
                "coordinates": [
                    17.09056170000,
                    42.96543210000
                ]
            }
        },
        {
            "type": "Feature",
            "properties": {
                "@id": "node/5595099268",
                "alt_name": "Uvala sv. Luke",
                "name": "Carkvica",
                "natural": "bay"
            },
            "geometry": {
                "type": "Point",
                "coordinates": [
                    16.72406130000,
                    43.15753930000
                ]
            }
        },
        {
            "type": "Feature",
            "properties": {
                "@id": "node/5803793886",
                "name": "Crkvice",
                "natural": "bay"
            },
            "geometry": {
                "type": "Point",
                "coordinates": [
                    17.37454780000,
                    42.97484850000
                ]
            }
        },
        {
            "type": "Feature",
            "properties": {
                "@id": "node/2326878181",
                "name": "Uvala Sveti Rok",
                "natural": "bay"
            },
            "geometry": {
                "type": "Point",
                "coordinates": [
                    16.87937780000,
                    43.28601550000
                ]
            }
        },
        {
            "type": "Feature",
            "properties": {
                "@id": "node/2102026327",
                "name": "Vela Draga",
                "natural": "bay"
            },
            "geometry": {
                "type": "Point",
                "coordinates": [
                    13.50866830000,
                    45.46283900000
                ]
            }
        },
        {
            "type": "Feature",
            "properties": {
                "@id": "node/2104552436",
                "name": "Bačvice",
                "natural": "bay"
            },
            "geometry": {
                "type": "Point",
                "coordinates": [
                    13.68992750000,
                    45.03871520000
                ]
            }
        },
        {
            "type": "Feature",
            "properties": {
                "@id": "node/5467316218",
                "name": "Uvala Valalta",
                "natural": "bay",
                "source": "geoportal.dgu.hr: TK25 (Topografska karta 1:25000)"
            },
            "geometry": {
                "type": "Point",
                "coordinates": [
                    14.67535260000,
                    44.79747470000
                ]
            }
        },
        {
            "type": "Feature",
            "properties": {
                "@id": "node/5993845726",
                "name": "Uvala Malagata",
                "natural": "bay"
            },
            "geometry": {
                "type": "Point",
                "coordinates": [
                    13.99219300000,
                    44.87789110000
                ]
            }
        },
        {
            "type": "Feature",
            "properties": {
                "@id": "node/2026879781",
                "name": "Studeni bok",
                "natural": "bay"
            },
            "geometry": {
                "type": "Point",
                "coordinates": [
                    16.08479960000,
                    43.47745960000
                ]
            }
        },
        {
            "type": "Feature",
            "properties": {
                "@id": "node/5480596590",
                "name": "Luka Silba",
                "natural": "bay",
                "source": "geoportal.dgu.hr: TK25 (Topografska karta 1:25000)"
            },
            "geometry": {
                "type": "Point",
                "coordinates": [
                    14.70348360000,
                    44.37523380000
                ]
            }
        },
        {
            "type": "Feature",
            "properties": {
                "@id": "node/984749868",
                "name": "Uvala Perma",
                "natural": "bay"
            },
            "geometry": {
                "type": "Point",
                "coordinates": [
                    16.84194460000,
                    42.72546970000
                ]
            }
        },
        {
            "type": "Feature",
            "properties": {
                "@id": "node/928498948",
                "name": "Uvala Lukovac",
                "natural": "bay",
                "source": "geoportal.dgu.hr: TK25 (Topografska karta 1:25000)"
            },
            "geometry": {
                "type": "Point",
                "coordinates": [
                    14.46401020000,
                    44.83144360000
                ]
            }
        },
        {
            "type": "Feature",
            "properties": {
                "@id": "node/5466465770",
                "name": "Uvala Valpojni",
                "natural": "bay",
                "source": "geoportal.dgu.hr: TK25 (Topografska karta 1:25000)"
            },
            "geometry": {
                "type": "Point",
                "coordinates": [
                    14.88885140000,
                    44.22569740000
                ]
            }
        },
        {
            "type": "Feature",
            "properties": {
                "@id": "node/5803777166",
                "name": "Uvala Velika Bezdija",
                "natural": "bay"
            },
            "geometry": {
                "type": "Point",
                "coordinates": [
                    17.07339240000,
                    43.02284760000
                ]
            }
        },
        {
            "type": "Feature",
            "properties": {
                "@id": "node/2992010448",
                "name": "Uvala Mala Tetina",
                "natural": "bay"
            },
            "geometry": {
                "type": "Point",
                "coordinates": [
                    14.80271140000,
                    44.84094520000
                ]
            }
        },
        {
            "type": "Feature",
            "properties": {
                "@id": "node/2100400936",
                "name": "Uvala Salbuni",
                "name:it": "Valle Salbuni",
                "natural": "bay"
            },
            "geometry": {
                "type": "Point",
                "coordinates": [
                    13.80787990000,
                    44.89949270000
                ]
            }
        },
        {
            "type": "Feature",
            "properties": {
                "@id": "node/5993845725",
                "name": "Uvala Babina škulja",
                "natural": "bay"
            },
            "geometry": {
                "type": "Point",
                "coordinates": [
                    13.99259950000,
                    44.87458500000
                ]
            }
        },
        {
            "type": "Feature",
            "properties": {
                "@id": "node/5513784707",
                "name": "Žalina",
                "natural": "bay",
                "source": "geoportal.dgu.hr: TK25 (Topografska karta 1:25000)"
            },
            "geometry": {
                "type": "Point",
                "coordinates": [
                    14.47083680000,
                    44.61862980000
                ]
            }
        },
        {
            "type": "Feature",
            "properties": {
                "@id": "node/3730797361",
                "name": "Uvala Klek",
                "natural": "bay"
            },
            "geometry": {
                "type": "Point",
                "coordinates": [
                    17.56223000000,
                    42.94206230000
                ]
            }
        },
        {
            "type": "Feature",
            "properties": {
                "@id": "node/5422666874",
                "name": "Kočina uvala",
                "natural": "bay"
            },
            "geometry": {
                "type": "Point",
                "coordinates": [
                    14.42599290000,
                    44.58004470000
                ]
            }
        },
        {
            "type": "Feature",
            "properties": {
                "@id": "node/928624642",
                "name": "Uvala Sveti Petar",
                "natural": "bay"
            },
            "geometry": {
                "type": "Point",
                "coordinates": [
                    14.39946550000,
                    44.91404540000
                ]
            }
        },
        {
            "type": "Feature",
            "properties": {
                "@id": "node/928498865",
                "name": "Uvala Kaldonta",
                "natural": "bay"
            },
            "geometry": {
                "type": "Point",
                "coordinates": [
                    14.45079230000,
                    44.63352170000
                ]
            }
        },
        {
            "type": "Feature",
            "properties": {
                "@id": "node/893367315",
                "name": "Uvala Sokoline",
                "natural": "bay"
            },
            "geometry": {
                "type": "Point",
                "coordinates": [
                    16.85340920000,
                    42.77474320000
                ]
            }
        },
        {
            "type": "Feature",
            "properties": {
                "@id": "way/258614413",
                "name": "Uvala Slivno",
                "natural": "bay"
            },
            "geometry": {
                "type": "Polygon",
                "coordinates": [
                    [
                        [
                            14.74249730000,
                            45.05584600000
                        ],
                        [
                            14.73868800000,
                            45.05763320000
                        ],
                        [
                            14.73996770000,
                            45.05494190000
                        ],
                        [
                            14.74141550000,
                            45.05494510000
                        ],
                        [
                            14.74249730000,
                            45.05584600000
                        ]
                    ]
                ]
            }
        },
        {
            "type": "Feature",
            "properties": {
                "@id": "node/1549105539",
                "name": "Luka Krnica",
                "natural": "bay"
            },
            "geometry": {
                "type": "Point",
                "coordinates": [
                    14.03560020000,
                    44.95089100000
                ]
            }
        },
        {
            "type": "Feature",
            "properties": {
                "@id": "node/3522208997",
                "name": "Uvala Frnažina",
                "natural": "bay"
            },
            "geometry": {
                "type": "Point",
                "coordinates": [
                    13.59370360000,
                    45.17240730000
                ]
            }
        },
        {
            "type": "Feature",
            "properties": {
                "@id": "node/928624536",
                "name": "Uvala Smokvica",
                "natural": "bay"
            },
            "geometry": {
                "type": "Point",
                "coordinates": [
                    14.37732120000,
                    45.05925310000
                ]
            }
        },
        {
            "type": "Feature",
            "properties": {
                "@id": "node/2683403539",
                "name": "Vela Prižba",
                "natural": "bay",
                "seamark:anchorage:category": "small_craft",
                "seamark:name": "Vela Prižba",
                "seamark:type": "anchorage"
            },
            "geometry": {
                "type": "Point",
                "coordinates": [
                    16.79729250000,
                    42.90497760000
                ]
            }
        },
        {
            "type": "Feature",
            "properties": {
                "@id": "node/1797973600",
                "name": "Uvala Mangrovica",
                "natural": "bay"
            },
            "geometry": {
                "type": "Point",
                "coordinates": [
                    15.13864350000,
                    43.92664260000
                ]
            }
        },
        {
            "type": "Feature",
            "properties": {
                "@id": "node/913201531",
                "name": "Žuljana",
                "natural": "bay"
            },
            "geometry": {
                "type": "Point",
                "coordinates": [
                    17.45308800000,
                    42.89172870000
                ]
            }
        },
        {
            "type": "Feature",
            "properties": {
                "@id": "node/3203545463",
                "name": "Uvala Lužmarin",
                "natural": "bay"
            },
            "geometry": {
                "type": "Point",
                "coordinates": [
                    14.33877220000,
                    44.69746590000
                ]
            }
        },
        {
            "type": "Feature",
            "properties": {
                "@id": "node/2274495834",
                "name": "L. Sveti Jakov",
                "natural": "bay"
            },
            "geometry": {
                "type": "Point",
                "coordinates": [
                    14.39957920000,
                    44.64741020000
                ]
            }
        },
        {
            "type": "Feature",
            "properties": {
                "@id": "node/928137219",
                "name": "Uvala Podprisliga",
                "natural": "bay"
            },
            "geometry": {
                "type": "Point",
                "coordinates": [
                    15.65023830000,
                    43.69608820000
                ]
            }
        },
        {
            "type": "Feature",
            "properties": {
                "@id": "node/2668321370",
                "name": "Nutna",
                "natural": "bay"
            },
            "geometry": {
                "type": "Point",
                "coordinates": [
                    16.64164430000,
                    42.93739970000
                ]
            }
        },
        {
            "type": "Feature",
            "properties": {
                "@id": "node/2326904634",
                "name": "Uvala Mala studena",
                "natural": "bay"
            },
            "geometry": {
                "type": "Point",
                "coordinates": [
                    16.85225130000,
                    43.27058210000
                ]
            }
        },
        {
            "type": "Feature",
            "properties": {
                "@id": "node/3523211940",
                "name:it": "Valle dei Confini",
                "natural": "bay"
            },
            "geometry": {
                "type": "Point",
                "coordinates": [
                    13.63776550000,
                    45.12972720000
                ]
            }
        },
        {
            "type": "Feature",
            "properties": {
                "@id": "node/2459144104",
                "name": "Lozna",
                "natural": "bay"
            },
            "geometry": {
                "type": "Point",
                "coordinates": [
                    16.44759460000,
                    43.19879850000
                ]
            }
        },
        {
            "type": "Feature",
            "properties": {
                "@id": "node/2711662213",
                "name": "Uvala Duboka",
                "natural": "bay"
            },
            "geometry": {
                "type": "Point",
                "coordinates": [
                    17.54503820000,
                    42.94403660000
                ]
            }
        },
        {
            "type": "Feature",
            "properties": {
                "@id": "node/5422558046",
                "name": "Uvala Sveti Petar",
                "natural": "bay"
            },
            "geometry": {
                "type": "Point",
                "coordinates": [
                    14.54952480000,
                    44.46533480000
                ]
            }
        },
        {
            "type": "Feature",
            "properties": {
                "@id": "node/5095255341",
                "name": "Uvala Zaglav",
                "natural": "bay"
            },
            "geometry": {
                "type": "Point",
                "coordinates": [
                    16.26620560000,
                    43.37316830000
                ]
            }
        },
        {
            "type": "Feature",
            "properties": {
                "@id": "node/928498837",
                "name": "Uvala Martinšćica",
                "natural": "bay"
            },
            "geometry": {
                "type": "Point",
                "coordinates": [
                    14.46373410000,
                    44.62474100000
                ]
            }
        },
        {
            "type": "Feature",
            "properties": {
                "@id": "node/406543026",
                "name": "Pećina uvala",
                "natural": "bay"
            },
            "geometry": {
                "type": "Point",
                "coordinates": [
                    14.52569500000,
                    44.47564460000
                ]
            }
        },
        {
            "type": "Feature",
            "properties": {
                "@id": "node/3006435506",
                "name": "Gabrica",
                "natural": "bay"
            },
            "geometry": {
                "type": "Point",
                "coordinates": [
                    16.69415570000,
                    42.95716450000
                ]
            }
        },
        {
            "type": "Feature",
            "properties": {
                "@id": "node/5095255362",
                "name": "Šipkova uvala",
                "natural": "bay"
            },
            "geometry": {
                "type": "Point",
                "coordinates": [
                    16.20472800000,
                    43.40545630000
                ]
            }
        },
        {
            "type": "Feature",
            "properties": {
                "@id": "node/5513828119",
                "name": "Uvala Matešić",
                "natural": "bay",
                "source": "geoportal.dgu.hr: TK25 (Topografska karta 1:25000)"
            },
            "geometry": {
                "type": "Point",
                "coordinates": [
                    14.51206740000,
                    44.65733630000
                ]
            }
        },
        {
            "type": "Feature",
            "properties": {
                "@id": "node/497782884",
                "name": "Uvala Debeljak",
                "natural": "bay"
            },
            "geometry": {
                "type": "Point",
                "coordinates": [
                    13.91814750000,
                    44.77240420000
                ]
            }
        },
        {
            "type": "Feature",
            "properties": {
                "@id": "node/2430320645",
                "name": "Uvala Gavranišće",
                "natural": "bay"
            },
            "geometry": {
                "type": "Point",
                "coordinates": [
                    14.73419200000,
                    44.75896730000
                ]
            }
        },
        {
            "type": "Feature",
            "properties": {
                "@id": "node/5422696139",
                "name": "Uvala Cirka južna",
                "natural": "bay"
            },
            "geometry": {
                "type": "Point",
                "coordinates": [
                    14.56855770000,
                    44.48533120000
                ]
            }
        },
        {
            "type": "Feature",
            "properties": {
                "@id": "node/5095255216",
                "name": "Duboka uvala",
                "natural": "bay"
            },
            "geometry": {
                "type": "Point",
                "coordinates": [
                    16.36233380000,
                    43.36490140000
                ]
            }
        },
        {
            "type": "Feature",
            "properties": {
                "@id": "node/5625389648",
                "name": "Uvala Blanto",
                "natural": "bay"
            },
            "geometry": {
                "type": "Point",
                "coordinates": [
                    14.46278210000,
                    45.09826830000
                ]
            }
        },
        {
            "type": "Feature",
            "properties": {
                "@id": "node/5095255340",
                "name": "Stankova uvala",
                "natural": "bay"
            },
            "geometry": {
                "type": "Point",
                "coordinates": [
                    16.27014030000,
                    43.37114300000
                ]
            }
        },
        {
            "type": "Feature",
            "properties": {
                "@id": "node/2272180371",
                "name": "Uvala Gabrova",
                "natural": "bay"
            },
            "geometry": {
                "type": "Point",
                "coordinates": [
                    16.61665100000,
                    43.37825900000
                ]
            }
        },
        {
            "type": "Feature",
            "properties": {
                "@id": "node/3522209001",
                "name": "Uvala Vršipera",
                "natural": "bay"
            },
            "geometry": {
                "type": "Point",
                "coordinates": [
                    13.59714310000,
                    45.16931600000
                ]
            }
        },
        {
            "type": "Feature",
            "properties": {
                "@id": "node/4594961846",
                "name": "Uvala Smrčevica",
                "natural": "bay"
            },
            "geometry": {
                "type": "Point",
                "coordinates": [
                    16.16256910000,
                    43.01784980000
                ]
            }
        },
        {
            "type": "Feature",
            "properties": {
                "@id": "node/2018272778",
                "name": "Uvala Tvrdača",
                "natural": "bay"
            },
            "geometry": {
                "type": "Point",
                "coordinates": [
                    15.98187840000,
                    43.52612970000
                ]
            }
        },
        {
            "type": "Feature",
            "properties": {
                "@id": "node/2100400933",
                "name": "Uvala Mužilj",
                "natural": "bay"
            },
            "geometry": {
                "type": "Point",
                "coordinates": [
                    13.80430000000,
                    44.86051750000
                ]
            }
        },
        {
            "type": "Feature",
            "properties": {
                "@id": "node/5464654917",
                "name": "Uvala Lojišće",
                "natural": "bay",
                "source": "geoportal.dgu.hr: TK25 (Topografska karta 1:25000)"
            },
            "geometry": {
                "type": "Point",
                "coordinates": [
                    14.69870920000,
                    44.28159500000
                ]
            }
        },
        {
            "type": "Feature",
            "properties": {
                "@id": "node/6720476654",
                "name": "Uvala Japnenica",
                "natural": "bay"
            },
            "geometry": {
                "type": "Point",
                "coordinates": [
                    14.26086980000,
                    44.64216250000
                ]
            }
        },
        {
            "type": "Feature",
            "properties": {
                "@id": "node/2711714394",
                "name": "Pještata",
                "natural": "bay",
                "place": "locality"
            },
            "geometry": {
                "type": "Point",
                "coordinates": [
                    17.50005090000,
                    42.91122880000
                ]
            }
        },
        {
            "type": "Feature",
            "properties": {
                "@id": "node/2430320648",
                "name": "Uvala Padova II",
                "natural": "bay"
            },
            "geometry": {
                "type": "Point",
                "coordinates": [
                    14.76902470000,
                    44.75330570000
                ]
            }
        },
        {
            "type": "Feature",
            "properties": {
                "@id": "node/5595088135",
                "name": "Lučina vala",
                "natural": "bay"
            },
            "geometry": {
                "type": "Point",
                "coordinates": [
                    16.66899560000,
                    43.19722990000
                ]
            }
        },
        {
            "type": "Feature",
            "properties": {
                "@id": "node/5480596591",
                "name": "Uvala Šotorišće",
                "natural": "bay",
                "source": "geoportal.dgu.hr: TK25 (Topografska karta 1:25000)"
            },
            "geometry": {
                "type": "Point",
                "coordinates": [
                    14.70366600000,
                    44.37249780000
                ]
            }
        },
        {
            "type": "Feature",
            "properties": {
                "@id": "node/2375460064",
                "name": "Uvala Mala Dajnica",
                "natural": "bay"
            },
            "geometry": {
                "type": "Point",
                "coordinates": [
                    15.21994660000,
                    43.89861110000
                ]
            }
        },
        {
            "type": "Feature",
            "properties": {
                "@id": "node/2274495845",
                "name": "Uvala Potfratri",
                "natural": "bay"
            },
            "geometry": {
                "type": "Point",
                "coordinates": [
                    14.39884110000,
                    44.66527390000
                ]
            }
        },
        {
            "type": "Feature",
            "properties": {
                "@id": "node/1813605385",
                "name": "Zenčišće",
                "natural": "bay"
            },
            "geometry": {
                "type": "Point",
                "coordinates": [
                    16.72012540000,
                    43.15804050000
                ]
            }
        },
        {
            "type": "Feature",
            "properties": {
                "@id": "node/1102766244",
                "name": "Blaca",
                "natural": "bay"
            },
            "geometry": {
                "type": "Point",
                "coordinates": [
                    17.17663660000,
                    43.12152420000
                ]
            }
        },
        {
            "type": "Feature",
            "properties": {
                "@id": "node/3203545482",
                "name": "Uvala Žarnovica",
                "natural": "bay"
            },
            "geometry": {
                "type": "Point",
                "coordinates": [
                    14.35793980000,
                    44.70029370000
                ]
            }
        },
        {
            "type": "Feature",
            "properties": {
                "@id": "node/3197925823",
                "name": "Uvala Lucica",
                "natural": "bay"
            },
            "geometry": {
                "type": "Point",
                "coordinates": [
                    14.39864950000,
                    44.65824880000
                ]
            }
        },
        {
            "type": "Feature",
            "properties": {
                "@id": "node/2408998965",
                "name": "Griparica",
                "natural": "bay"
            },
            "geometry": {
                "type": "Point",
                "coordinates": [
                    14.71450450000,
                    44.27851690000
                ]
            }
        },
        {
            "type": "Feature",
            "properties": {
                "@id": "node/1836185411",
                "name": "Ravni Doci",
                "natural": "bay"
            },
            "geometry": {
                "type": "Point",
                "coordinates": [
                    16.80051760000,
                    43.12529540000
                ]
            }
        },
        {
            "type": "Feature",
            "properties": {
                "@id": "node/5462659728",
                "name": "Uvala Kusan",
                "natural": "bay"
            },
            "geometry": {
                "type": "Point",
                "coordinates": [
                    14.76666440000,
                    44.41438100000
                ]
            }
        },
        {
            "type": "Feature",
            "properties": {
                "@id": "node/5467321654",
                "name": "Uvala Krklant",
                "natural": "bay",
                "source": "geoportal.dgu.hr: TK25 (Topografska karta 1:25000)"
            },
            "geometry": {
                "type": "Point",
                "coordinates": [
                    14.82452630000,
                    44.75852760000
                ]
            }
        },
        {
            "type": "Feature",
            "properties": {
                "@id": "node/1102766243",
                "name": "Aržišće",
                "natural": "bay"
            },
            "geometry": {
                "type": "Point",
                "coordinates": [
                    17.08449660000,
                    43.11426370000
                ]
            }
        },
        {
            "type": "Feature",
            "properties": {
                "@id": "node/1606271565",
                "name": "Kašuni",
                "natural": "bay",
                "source": "U.S. Defense"
            },
            "geometry": {
                "type": "Point",
                "coordinates": [
                    16.39824910000,
                    43.50663200000
                ]
            }
        },
        {
            "type": "Feature",
            "properties": {
                "@id": "node/573302027",
                "description": "schöne geschützte Ankerbucht",
                "name": "Uvala Englez",
                "natural": "bay",
                "waterway:sign": "anchor"
            },
            "geometry": {
                "type": "Point",
                "coordinates": [
                    14.42913790000,
                    44.55076810000
                ]
            }
        },
        {
            "type": "Feature",
            "properties": {
                "@id": "node/5467316214",
                "name": "Uvala Valsika",
                "natural": "bay"
            },
            "geometry": {
                "type": "Point",
                "coordinates": [
                    14.68700410000,
                    44.76489620000
                ]
            }
        },
        {
            "type": "Feature",
            "properties": {
                "@id": "node/2951437153",
                "name": "Uvala Dumići",
                "natural": "bay",
                "source": "geoportal.dgu.hr: TK25 (Topografska karta 1:25000)"
            },
            "geometry": {
                "type": "Point",
                "coordinates": [
                    14.70555470000,
                    44.80655400000
                ]
            }
        },
        {
            "type": "Feature",
            "properties": {
                "@id": "node/2711662242",
                "name": "Uvala Vinogradina",
                "natural": "bay",
                "place": "locality"
            },
            "geometry": {
                "type": "Point",
                "coordinates": [
                    17.47401260000,
                    42.98625950000
                ]
            }
        },
        {
            "type": "Feature",
            "properties": {
                "@id": "node/928630029",
                "name": "Uvala Dubac",
                "natural": "bay"
            },
            "geometry": {
                "type": "Point",
                "coordinates": [
                    14.76582420000,
                    44.92141130000
                ]
            }
        },
        {
            "type": "Feature",
            "properties": {
                "@id": "node/2272180370",
                "name": "Uvala Lozna vela",
                "natural": "bay"
            },
            "geometry": {
                "type": "Point",
                "coordinates": [
                    16.66093800000,
                    43.37328360000
                ]
            }
        },
        {
            "type": "Feature",
            "properties": {
                "@id": "node/3641079659",
                "name": "Uvala Mala Kolumbarica",
                "natural": "bay"
            },
            "geometry": {
                "type": "Point",
                "coordinates": [
                    13.91125290000,
                    44.76854910000
                ]
            }
        },
        {
            "type": "Feature",
            "properties": {
                "@id": "node/1947983699",
                "name": "Borova uvala",
                "natural": "bay"
            },
            "geometry": {
                "type": "Point",
                "coordinates": [
                    16.42048750000,
                    43.31426570000
                ]
            }
        },
        {
            "type": "Feature",
            "properties": {
                "@id": "node/5095255344",
                "name": "Travna uvala",
                "natural": "bay"
            },
            "geometry": {
                "type": "Point",
                "coordinates": [
                    16.25230880000,
                    43.37819400000
                ]
            }
        },
        {
            "type": "Feature",
            "properties": {
                "@id": "node/6760603197",
                "name": "Uvala Srebrena",
                "natural": "bay"
            },
            "geometry": {
                "type": "Point",
                "coordinates": [
                    16.20358580000,
                    43.02035590000
                ]
            }
        },
        {
            "type": "Feature",
            "properties": {
                "@id": "node/3522208999",
                "name": "Uvala Soline",
                "natural": "bay"
            },
            "geometry": {
                "type": "Point",
                "coordinates": [
                    13.60500890000,
                    45.16238100000
                ]
            }
        },
        {
            "type": "Feature",
            "properties": {
                "@id": "node/3197925821",
                "name": "Uvala Čikat",
                "name:it": "Baia di Cigale",
                "natural": "bay"
            },
            "geometry": {
                "type": "Point",
                "coordinates": [
                    14.45095000000,
                    44.52854710000
                ]
            }
        },
        {
            "type": "Feature",
            "properties": {
                "@id": "node/5424184448",
                "name": "Druga draga",
                "natural": "bay"
            },
            "geometry": {
                "type": "Point",
                "coordinates": [
                    14.36033940000,
                    44.69951400000
                ]
            }
        },
        {
            "type": "Feature",
            "properties": {
                "@id": "node/3677911836",
                "name": "Uvala Sveti Križ",
                "name:it": "Valle Santa Croce",
                "natural": "bay",
                "source": "http://digitalcollections.nypl.org/items/510d47df-8cbb-a3d9-e040-e00a18064a99"
            },
            "geometry": {
                "type": "Point",
                "coordinates": [
                    17.16057120000,
                    43.18488720000
                ]
            }
        },
        {
            "type": "Feature",
            "properties": {
                "@id": "node/5095255198",
                "name": "Bočac",
                "natural": "bay"
            },
            "geometry": {
                "type": "Point",
                "coordinates": [
                    16.29638710000,
                    43.39831750000
                ]
            }
        },
        {
            "type": "Feature",
            "properties": {
                "@id": "node/1390738109",
                "name": "Soline",
                "natural": "bay"
            },
            "geometry": {
                "type": "Point",
                "coordinates": [
                    16.69066440000,
                    43.18007360000
                ]
            }
        },
        {
            "type": "Feature",
            "properties": {
                "@id": "node/1614365525",
                "name": "Uvala Saccorgiana",
                "natural": "bay",
                "source": "local knowledge"
            },
            "geometry": {
                "type": "Point",
                "coordinates": [
                    13.83120900000,
                    44.84261800000
                ]
            }
        },
        {
            "type": "Feature",
            "properties": {
                "@id": "node/2104552478",
                "name": "Uvala Valdibora",
                "name:it": "Val di Bora",
                "natural": "bay"
            },
            "geometry": {
                "type": "Point",
                "coordinates": [
                    13.63338920000,
                    45.09020790000
                ]
            }
        },
        {
            "type": "Feature",
            "properties": {
                "@id": "node/497782965",
                "name": "Uvala Velika Radovica",
                "name:it": "Valle Radovizze",
                "natural": "bay",
                "source": "U.S. Defense Mapping Agency"
            },
            "geometry": {
                "type": "Point",
                "coordinates": [
                    13.90682260000,
                    44.77243820000
                ]
            }
        },
        {
            "type": "Feature",
            "properties": {
                "@id": "node/5029998958",
                "name": "Uvala Bakarac",
                "name:it": "Golfo di Buccarizza",
                "natural": "bay"
            },
            "geometry": {
                "type": "Point",
                "coordinates": [
                    14.57534140000,
                    45.28271040000
                ]
            }
        },
        {
            "type": "Feature",
            "properties": {
                "@id": "node/2378263681",
                "name": "Uvala Kameničine",
                "natural": "bay"
            },
            "geometry": {
                "type": "Point",
                "coordinates": [
                    14.85515580000,
                    44.17127050000
                ]
            }
        },
        {
            "type": "Feature",
            "properties": {
                "@id": "node/1390738104",
                "name": "Balun",
                "natural": "bay"
            },
            "geometry": {
                "type": "Point",
                "coordinates": [
                    16.69683470000,
                    43.18153080000
                ]
            }
        },
        {
            "type": "Feature",
            "properties": {
                "@id": "node/2683403528",
                "name": "Garma",
                "natural": "bay"
            },
            "geometry": {
                "type": "Point",
                "coordinates": [
                    16.68408860000,
                    42.92375760000
                ]
            }
        },
        {
            "type": "Feature",
            "properties": {
                "@id": "node/5464258931",
                "name": "Uvala Mali Jurahno",
                "natural": "bay",
                "source": "geoportal.dgu.hr: TK25 (Topografska karta 1:25000)"
            },
            "geometry": {
                "type": "Point",
                "coordinates": [
                    14.74204300000,
                    44.86665240000
                ]
            }
        },
        {
            "type": "Feature",
            "properties": {
                "@id": "node/726748742",
                "name": "Ribnjak",
                "natural": "bay",
                "old_name:it": "Val di Torre"
            },
            "geometry": {
                "type": "Point",
                "coordinates": [
                    13.75898820000,
                    44.92159650000
                ]
            }
        },
        {
            "type": "Feature",
            "properties": {
                "@id": "node/5775337045",
                "name": "Stupišće",
                "natural": "bay"
            },
            "geometry": {
                "type": "Point",
                "coordinates": [
                    16.54160200000,
                    43.21250260000
                ]
            }
        },
        {
            "type": "Feature",
            "properties": {
                "@id": "way/179188563",
                "name": "Uvala Piškera",
                "natural": "bay"
            },
            "geometry": {
                "type": "Polygon",
                "coordinates": [
                    [
                        [
                            16.31232570000,
                            43.38182310000
                        ],
                        [
                            16.31255100000,
                            43.38151940000
                        ],
                        [
                            16.31270510000,
                            43.38106380000
                        ],
                        [
                            16.31264760000,
                            43.38077040000
                        ],
                        [
                            16.31263690000,
                            43.38042730000
                        ],
                        [
                            16.31246520000,
                            43.38018560000
                        ],
                        [
                            16.31261540000,
                            43.37991300000
                        ],
                        [
                            16.31310890000,
                            43.37967870000
                        ],
                        [
                            16.31348440000,
                            43.37957770000
                        ],
                        [
                            16.31389210000,
                            43.37959330000
                        ],
                        [
                            16.31393290000,
                            43.37974160000
                        ],
                        [
                            16.31397800000,
                            43.37990520000
                        ],
                        [
                            16.31359170000,
                            43.38025610000
                        ],
                        [
                            16.31361320000,
                            43.38074700000
                        ],
                        [
                            16.31362390000,
                            43.38123090000
                        ],
                        [
                            16.31369900000,
                            43.38175290000
                        ],
                        [
                            16.31380630000,
                            43.38213540000
                        ],
                        [
                            16.31232570000,
                            43.38182310000
                        ]
                    ]
                ]
            }
        },
        {
            "type": "Feature",
            "properties": {
                "@id": "node/2623873152",
                "name": "Uvala Vošćice",
                "natural": "bay"
            },
            "geometry": {
                "type": "Point",
                "coordinates": [
                    14.13582460000,
                    44.96491720000
                ]
            }
        },
        {
            "type": "Feature",
            "properties": {
                "@id": "way/329838891",
                "name": "Srhov Dolac",
                "natural": "bay"
            },
            "geometry": {
                "type": "Polygon",
                "coordinates": [
                    [
                        [
                            16.91562280000,
                            43.11454910000
                        ],
                        [
                            16.91821890000,
                            43.11540490000
                        ],
                        [
                            16.91790590000,
                            43.11544230000
                        ],
                        [
                            16.91757750000,
                            43.11566100000
                        ],
                        [
                            16.91673750000,
                            43.11642640000
                        ],
                        [
                            16.91665300000,
                            43.11650850000
                        ],
                        [
                            16.91653250000,
                            43.11657340000
                        ],
                        [
                            16.91627930000,
                            43.11652000000
                        ],
                        [
                            16.91616040000,
                            43.11642170000
                        ],
                        [
                            16.91600660000,
                            43.11643040000
                        ],
                        [
                            16.91581330000,
                            43.11630820000
                        ],
                        [
                            16.91568850000,
                            43.11613350000
                        ],
                        [
                            16.91575940000,
                            43.11605270000
                        ],
                        [
                            16.91583610000,
                            43.11601820000
                        ],
                        [
                            16.91615270000,
                            43.11609160000
                        ],
                        [
                            16.91617990000,
                            43.11604920000
                        ],
                        [
                            16.91591820000,
                            43.11596960000
                        ],
                        [
                            16.91599650000,
                            43.11576390000
                        ],
                        [
                            16.91605040000,
                            43.11560470000
                        ],
                        [
                            16.91597300000,
                            43.11553250000
                        ],
                        [
                            16.91597520000,
                            43.11546000000
                        ],
                        [
                            16.91613920000,
                            43.11532450000
                        ],
                        [
                            16.91598250000,
                            43.11491430000
                        ],
                        [
                            16.91562280000,
                            43.11454910000
                        ]
                    ]
                ]
            }
        },
        {
            "type": "Feature",
            "properties": {
                "@id": "node/3203542459",
                "name": "Uvala Kriška",
                "natural": "bay"
            },
            "geometry": {
                "type": "Point",
                "coordinates": [
                    14.39151080000,
                    44.60282330000
                ]
            }
        },
        {
            "type": "Feature",
            "properties": {
                "@id": "node/928624698",
                "name": "Uvala Vrutek",
                "natural": "bay"
            },
            "geometry": {
                "type": "Point",
                "coordinates": [
                    14.32994260000,
                    44.85383930000
                ]
            }
        },
        {
            "type": "Feature",
            "properties": {
                "@id": "node/2239979905",
                "name": "Uvala Rina",
                "natural": "bay"
            },
            "geometry": {
                "type": "Point",
                "coordinates": [
                    15.99791990000,
                    43.49589120000
                ]
            }
        },
        {
            "type": "Feature",
            "properties": {
                "@id": "node/927085501",
                "name": "Uvala Vaja",
                "natural": "bay"
            },
            "geometry": {
                "type": "Point",
                "coordinates": [
                    17.00353660000,
                    42.97592480000
                ]
            }
        },
        {
            "type": "Feature",
            "properties": {
                "@id": "node/5095255330",
                "name": "Uvala Potpoldo",
                "natural": "bay"
            },
            "geometry": {
                "type": "Point",
                "coordinates": [
                    16.32499930000,
                    43.34624720000
                ]
            }
        },
        {
            "type": "Feature",
            "properties": {
                "@id": "node/2102026313",
                "name": "Uvala Crvena",
                "natural": "bay"
            },
            "geometry": {
                "type": "Point",
                "coordinates": [
                    13.50260060000,
                    45.47701630000
                ]
            }
        },
        {
            "type": "Feature",
            "properties": {
                "@id": "node/5458500608",
                "name": "Dobra uvala",
                "natural": "bay"
            },
            "geometry": {
                "type": "Point",
                "coordinates": [
                    14.66009720000,
                    44.30668880000
                ]
            }
        },
        {
            "type": "Feature",
            "properties": {
                "@id": "node/406543023",
                "name": "Vinkova",
                "natural": "bay"
            },
            "geometry": {
                "type": "Point",
                "coordinates": [
                    14.51355250000,
                    44.47860490000
                ]
            }
        },
        {
            "type": "Feature",
            "properties": {
                "@id": "node/6278731350",
                "name": "Uvala Školjić",
                "natural": "bay"
            },
            "geometry": {
                "type": "Point",
                "coordinates": [
                    13.91697550000,
                    44.78599030000
                ]
            }
        },
        {
            "type": "Feature",
            "properties": {
                "@id": "node/3674537781",
                "name": "Uvala Draga",
                "natural": "bay"
            },
            "geometry": {
                "type": "Point",
                "coordinates": [
                    13.74658520000,
                    44.90559090000
                ]
            }
        },
        {
            "type": "Feature",
            "properties": {
                "@id": "node/5513828103",
                "name": "Uvala Melići",
                "natural": "bay",
                "source": "geoportal.dgu.hr: TK25 (Topografska karta 1:25000)"
            },
            "geometry": {
                "type": "Point",
                "coordinates": [
                    14.51411680000,
                    44.64413610000
                ]
            }
        },
        {
            "type": "Feature",
            "properties": {
                "@id": "node/5480596587",
                "name": "Dražice",
                "natural": "bay",
                "source": "geoportal.dgu.hr: TK25 (Topografska karta 1:25000)"
            },